{
  "projects": [
    {
      "id": 1,
      "projectName": "Solar Farm Alpha",
      "latitude": 19.0760,
      "longitude": 75.8777,
      "status": "Active",
      "lastUpdated": "2024-01-15T10:30:00Z",
      "description": "Renewable energy project in Mumbai",
      "budget": 2500000,
      "category": "Energy"
    },
    {
      "id": 2,
      "projectName": "Metro Bridge Expansion",
      "latitude": 18.5204,
      "longitude": 73.8567,
      "status": "In Progress",
      "lastUpdated": "2024-02-01T14:22:00Z",
      "description": "Infrastructure development in Pune",
      "budget": 15000000,
      "category": "Infrastructure"
    },
    {
      "id": 3,
      "projectName": "Wind Turbine Site B",
      "latitude": 21.1458,
      "longitude": 79.0882,
      "status": "Completed",
      "lastUpdated": "2023-12-20T09:15:00Z",
      "description": "Wind energy installation in Nagpur",
      "budget": 3200000,
      "category": "Energy"
    },
    {
      "id": 4,
      "projectName": "Water Treatment Facility",
      "latitude": 19.9975,
      "longitude": 73.7898,
      "status": "Pending",
      "lastUpdated": "2024-01-28T16:45:00Z",
      "description": "Public health infrastructure in Nashik",
      "budget": 8500000,
      "category": "Infrastructure"
    },
    {
      "id": 5,
      "projectName": "Smart City IoT Hub",
      "latitude": 19.8762,
      "longitude": 75.3433,
      "status": "Active",
      "lastUpdated": "2024-02-03T11:20:00Z",
      "description": "Technology deployment in Aurangabad",
      "budget": 5600000,
      "category": "Technology"
    },
    {
      "id": 6,
      "projectName": "Coastal Restoration Delta",
      "latitude": 16.7050,
      "longitude": 74.2433,
      "status": "In Progress",
      "lastUpdated": "2024-01-22T08:30:00Z",
      "description": "Environmental project in Kolhapur",
      "budget": 4200000,
      "category": "Environment"
    },
    {
      "id": 7,
      "projectName": "Highway 101 Upgrade",
      "latitude": 17.6599,
      "longitude": 75.9064,
      "status": "Active",
      "lastUpdated": "2024-02-02T13:10:00Z",
      "description": "Transportation improvement in Solapur",
      "budget": 22000000,
      "category": "Infrastructure"
    },
    {
      "id": 8,
      "projectName": "Geothermal Plant",
      "latitude": 20.9374,
      "longitude": 77.7796,
      "status": "Pending",
      "lastUpdated": "2024-01-18T15:55:00Z",
      "description": "Renewable energy initiative in Amravati",
      "budget": 12000000,
      "category": "Energy"
    },
    {
      "id": 9,
      "projectName": "Urban Park Revitalization",
      "latitude": 19.2183,
      "longitude": 72.9781,
      "status": "Completed",
      "lastUpdated": "2023-11-30T10:00:00Z",
      "description": "Community development in Thane",
      "budget": 1800000,
      "category": "Community"
    },
    {
      "id": 10,
      "projectName": "5G Network Rollout",
      "latitude": 19.1383,
      "longitude": 77.3210,
      "status": "In Progress",
      "lastUpdated": "2024-01-25T12:40:00Z",
      "description": "Telecommunications upgrade in Nanded",
      "budget": 7500000,
      "category": "Technology"
    },
    {
      "id": 11,
      "projectName": "Hydroelectric Dam",
      "latitude": 20.7081,
      "longitude": 76.9980,
      "status": "Active",
      "lastUpdated": "2024-02-04T09:25:00Z",
      "description": "Power generation in Akola",
      "budget": 35000000,
      "category": "Energy"
    },
    {
      "id": 12,
      "projectName": "Airport Terminal C",
      "latitude": 19.0896,
      "longitude": 72.8656,
      "status": "In Progress",
      "lastUpdated": "2024-01-30T14:15:00Z",
      "description": "Aviation infrastructure in Mumbai Central",
      "budget": 45000000,
      "category": "Infrastructure"
    },
    {
      "id": 13,
      "projectName": "Forest Conservation Area",
      "latitude": 18.6298,
      "longitude": 73.7997,
      "status": "Active",
      "lastUpdated": "2024-01-20T11:30:00Z",
      "description": "Environmental protection in Lonavala",
      "budget": 2100000,
      "category": "Environment"
    },
    {
      "id": 14,
      "projectName": "Rail Transit Extension",
      "latitude": 19.2403,
      "longitude": 72.8639,
      "status": "Pending",
      "lastUpdated": "2024-01-27T16:20:00Z",
      "description": "Public transport expansion in Andheri",
      "budget": 28000000,
      "category": "Infrastructure"
    },
    {
      "id": 15,
      "projectName": "Solar Roof Initiative",
      "latitude": 18.5642,
      "longitude": 73.7769,
      "status": "Active",
      "lastUpdated": "2024-02-01T10:50:00Z",
      "description": "Green energy program in Khadki",
      "budget": 3800000,
      "category": "Energy"
    },
    {
      "id": 16,
      "projectName": "Smart Grid Upgrade",
      "latitude": 21.1702,
      "longitude": 72.8311,
      "status": "In Progress",
      "lastUpdated": "2024-01-23T13:35:00Z",
      "description": "Electrical infrastructure in Surat border area",
      "budget": 9200000,
      "category": "Technology"
    },
    {
      "id": 17,
      "projectName": "Wetlands Preservation",
      "latitude": 19.0144,
      "longitude": 73.0160,
      "status": "Completed",
      "lastUpdated": "2023-12-15T08:45:00Z",
      "description": "Ecosystem protection in Navi Mumbai",
      "budget": 1500000,
      "category": "Environment"
    },
    {
      "id": 18,
      "projectName": "Fiber Optic Network",
      "latitude": 20.0063,
      "longitude": 73.7679,
      "status": "Active",
      "lastUpdated": "2024-01-29T15:10:00Z",
      "description": "Internet infrastructure in Nashik Road",
      "budget": 6700000,
      "category": "Technology"
    },
    {
      "id": 19,
      "projectName": "Waste Management Center",
      "latitude": 18.4633,
      "longitude": 73.8677,
      "status": "In Progress",
      "lastUpdated": "2024-01-26T12:00:00Z",
      "description": "Recycling facility in Pune South",
      "budget": 11000000,
      "category": "Infrastructure"
    },
    {
      "id": 20,
      "projectName": "Community Health Clinic",
      "latitude": 19.2502,
      "longitude": 72.8713,
      "status": "Pending",
      "lastUpdated": "2024-01-24T09:40:00Z",
      "description": "Healthcare expansion in Borivali",
      "budget": 5300000,
      "category": "Community"
    },
    {
      "id": 21,
      "projectName": "Tidal Energy Plant",
      "latitude": 18.9322,
      "longitude": 72.8264,
      "status": "Active",
      "lastUpdated": "2024-02-03T14:25:00Z",
      "description": "Ocean power generation in Worli",
      "budget": 18000000,
      "category": "Energy"
    },
    {
      "id": 22,
      "projectName": "Tunnel Rehabilitation",
      "latitude": 18.5089,
      "longitude": 73.9454,
      "status": "In Progress",
      "lastUpdated": "2024-01-31T11:15:00Z",
      "description": "Infrastructure repair in Hadapsar",
      "budget": 13500000,
      "category": "Infrastructure"
    },
    {
      "id": 23,
      "projectName": "Air Quality Monitoring",
      "latitude": 19.1176,
      "longitude": 72.9060,
      "status": "Active",
      "lastUpdated": "2024-02-02T10:20:00Z",
      "description": "Environmental tracking in Ghatkopar",
      "budget": 2800000,
      "category": "Environment"
    },
    {
      "id": 24,
      "projectName": "Education Tech Hub",
      "latitude": 21.1609,
      "longitude": 79.0363,
      "status": "Completed",
      "lastUpdated": "2023-12-10T13:50:00Z",
      "description": "Digital learning center in Nagpur East",
      "budget": 4100000,
      "category": "Technology"
    },
    {
      "id": 25,
      "projectName": "Port Expansion Project",
      "latitude": 18.9641,
      "longitude": 72.8117,
      "status": "In Progress",
      "lastUpdated": "2024-01-28T15:30:00Z",
      "description": "Maritime infrastructure in Mumbai Port",
      "budget": 52000000,
      "category": "Infrastructure"
    },
    {
      "id": 26,
      "projectName": "Biomass Energy Plant",
      "latitude": 17.3850,
      "longitude": 78.4867,
      "status": "Active",
      "lastUpdated": "2024-02-04T11:05:00Z",
      "description": "Alternative energy in Yavatmal",
      "budget": 19500000,
      "category": "Energy"
    },
    {
      "id": 27,
      "projectName": "Water Desalination Unit",
      "latitude": 18.9388,
      "longitude": 72.8354,
      "status": "In Progress",
      "lastUpdated": "2024-01-19T14:30:00Z",
      "description": "Fresh water production in Dadar",
      "budget": 24000000,
      "category": "Infrastructure"
    },
    {
      "id": 28,
      "projectName": "Wildlife Corridor Bridge",
      "latitude": 19.6635,
      "longitude": 75.3009,
      "status": "Completed",
      "lastUpdated": "2023-12-22T09:20:00Z",
      "description": "Animal protection in Jalna",
      "budget": 5800000,
      "category": "Environment"
    },
    {
      "id": 29,
      "projectName": "AI Research Center",
      "latitude": 18.6051,
      "longitude": 73.7361,
      "status": "Active",
      "lastUpdated": "2024-02-01T16:15:00Z",
      "description": "Technology innovation in Hinjewadi",
      "budget": 32000000,
      "category": "Technology"
    },
    {
      "id": 30,
      "projectName": "Elderly Care Facility",
      "latitude": 19.1948,
      "longitude": 72.9703,
      "status": "Pending",
      "lastUpdated": "2024-01-22T10:45:00Z",
      "description": "Senior housing in Mulund",
      "budget": 8900000,
      "category": "Community"
    },
    {
      "id": 31,
      "projectName": "Floating Solar Farm",
      "latitude": 19.3919,
      "longitude": 74.7480,
      "status": "Active",
      "lastUpdated": "2024-02-03T13:25:00Z",
      "description": "Water-based solar in Ahmednagar",
      "budget": 15600000,
      "category": "Energy"
    },
    {
      "id": 32,
      "projectName": "Metro Line 4 Extension",
      "latitude": 18.5314,
      "longitude": 73.8446,
      "status": "In Progress",
      "lastUpdated": "2024-01-28T15:50:00Z",
      "description": "Urban transit in Shivajinagar",
      "budget": 42000000,
      "category": "Infrastructure"
    },
    {
      "id": 33,
      "projectName": "Mangrove Restoration",
      "latitude": 19.1095,
      "longitude": 72.8365,
      "status": "Active",
      "lastUpdated": "2024-01-17T09:30:00Z",
      "description": "Coastal ecology in Mahim",
      "budget": 3400000,
      "category": "Environment"
    },
    {
      "id": 34,
      "projectName": "Blockchain Innovation Lab",
      "latitude": 18.4574,
      "longitude": 73.8543,
      "status": "Completed",
      "lastUpdated": "2023-12-18T14:10:00Z",
      "description": "Fintech development in Magarpatta",
      "budget": 12300000,
      "category": "Technology"
    },
    {
      "id": 35,
      "projectName": "Affordable Housing Complex",
      "latitude": 19.2812,
      "longitude": 72.8691,
      "status": "In Progress",
      "lastUpdated": "2024-01-25T11:20:00Z",
      "description": "Residential project in Kandivali",
      "budget": 38000000,
      "category": "Community"
    },
    {
      "id": 36,
      "projectName": "Wave Energy Converter",
      "latitude": 15.8497,
      "longitude": 73.8347,
      "status": "Active",
      "lastUpdated": "2024-02-02T12:40:00Z",
      "description": "Ocean energy in Ratnagiri",
      "budget": 21000000,
      "category": "Energy"
    },
    {
      "id": 37,
      "projectName": "Ring Road Construction",
      "latitude": 21.1255,
      "longitude": 79.0723,
      "status": "In Progress",
      "lastUpdated": "2024-01-30T10:15:00Z",
      "description": "Traffic management in Nagpur West",
      "budget": 55000000,
      "category": "Infrastructure"
    },
    {
      "id": 38,
      "projectName": "Urban Forest Park",
      "latitude": 18.4860,
      "longitude": 73.8120,
      "status": "Active",
      "lastUpdated": "2024-01-16T14:55:00Z",
      "description": "Green space in Bibwewadi",
      "budget": 6200000,
      "category": "Environment"
    },
    {
      "id": 39,
      "projectName": "Quantum Computing Lab",
      "latitude": 19.1136,
      "longitude": 72.8697,
      "status": "Pending",
      "lastUpdated": "2024-01-21T16:30:00Z",
      "description": "Advanced research in Kurla",
      "budget": 28500000,
      "category": "Technology"
    },
    {
      "id": 40,
      "projectName": "Children's Hospital Wing",
      "latitude": 19.0330,
      "longitude": 73.0297,
      "status": "Active",
      "lastUpdated": "2024-02-04T09:45:00Z",
      "description": "Pediatric care in Panvel",
      "budget": 17800000,
      "category": "Community"
    },
    {
      "id": 41,
      "projectName": "Compressed Air Storage",
      "latitude": 20.5937,
      "longitude": 78.9629,
      "status": "In Progress",
      "lastUpdated": "2024-01-27T13:20:00Z",
      "description": "Energy storage in Wardha",
      "budget": 31000000,
      "category": "Energy"
    },
    {
      "id": 42,
      "projectName": "Flyover Network",
      "latitude": 18.5691,
      "longitude": 73.9142,
      "status": "Active",
      "lastUpdated": "2024-02-01T15:35:00Z",
      "description": "Traffic solution in Yerwada",
      "budget": 48000000,
      "category": "Infrastructure"
    },
    {
      "id": 43,
      "projectName": "Wetland Bird Sanctuary",
      "latitude": 19.4326,
      "longitude": 72.8126,
      "status": "Completed",
      "lastUpdated": "2023-11-28T10:25:00Z",
      "description": "Wildlife habitat in Vasai",
      "budget": 4700000,
      "category": "Environment"
    },
    {
      "id": 44,
      "projectName": "Drone Delivery Hub",
      "latitude": 18.4727,
      "longitude": 73.8293,
      "status": "Active",
      "lastUpdated": "2024-01-23T12:50:00Z",
      "description": "Logistics innovation in Katraj",
      "budget": 9400000,
      "category": "Technology"
    },
    {
      "id": 45,
      "projectName": "Sports Complex",
      "latitude": 19.1663,
      "longitude": 72.8526,
      "status": "In Progress",
      "lastUpdated": "2024-01-26T14:05:00Z",
      "description": "Recreation facility in Bandra",
      "budget": 22500000,
      "category": "Community"
    },
    {
      "id": 46,
      "projectName": "Solid Oxide Fuel Cell",
      "latitude": 16.8302,
      "longitude": 74.6077,
      "status": "Active",
      "lastUpdated": "2024-02-03T11:40:00Z",
      "description": "Clean energy in Ichalkaranji",
      "budget": 26700000,
      "category": "Energy"
    },
    {
      "id": 47,
      "projectName": "Skyway Metro Bridge",
      "latitude": 19.0668,
      "longitude": 72.8322,
      "status": "In Progress",
      "lastUpdated": "2024-01-29T16:15:00Z",
      "description": "Elevated transit in Parel",
      "budget": 38900000,
      "category": "Infrastructure"
    },
    {
      "id": 48,
      "projectName": "Coral Reef Revival",
      "latitude": 16.0458,
      "longitude": 73.0169,
      "status": "Active",
      "lastUpdated": "2024-01-20T09:55:00Z",
      "description": "Marine conservation in Vengurla",
      "budget": 7100000,
      "category": "Environment"
    },
    {
      "id": 49,
      "projectName": "Satellite Ground Station",
      "latitude": 18.6477,
      "longitude": 73.8063,
      "status": "Completed",
      "lastUpdated": "2023-12-25T13:30:00Z",
      "description": "Space communication in Aundh",
      "budget": 19200000,
      "category": "Technology"
    },
    {
      "id": 50,
      "projectName": "Public Library Network",
      "latitude": 19.2952,
      "longitude": 73.1218,
      "status": "Active",
      "lastUpdated": "2024-02-02T10:10:00Z",
      "description": "Education access in Kalyan",
      "budget": 5500000,
      "category": "Community"
    },
    {
      "id": 51,
      "projectName": "Pumped Hydro Storage",
      "latitude": 18.7322,
      "longitude": 73.4279,
      "status": "In Progress",
      "lastUpdated": "2024-01-31T12:25:00Z",
      "description": "Energy reservoir in Khandala",
      "budget": 44000000,
      "category": "Energy"
    },
    {
      "id": 52,
      "projectName": "Cargo Terminal Upgrade",
      "latitude": 19.0886,
      "longitude": 72.8678,
      "status": "Active",
      "lastUpdated": "2024-02-04T14:45:00Z",
      "description": "Logistics facility in Sahar",
      "budget": 29800000,
      "category": "Infrastructure"
    },
    {
      "id": 53,
      "projectName": "River Rejuvenation",
      "latitude": 18.5203,
      "longitude": 73.8567,
      "status": "In Progress",
      "lastUpdated": "2024-01-18T11:35:00Z",
      "description": "Water body restoration in Pune City",
      "budget": 15200000,
      "category": "Environment"
    },
    {
      "id": 54,
      "projectName": "5G Innovation Lab",
      "latitude": 19.1497,
      "longitude": 72.9366,
      "status": "Active",
      "lastUpdated": "2024-01-24T15:20:00Z",
      "description": "Telecom research in Powai",
      "budget": 11900000,
      "category": "Technology"
    },
    {
      "id": 55,
      "projectName": "Vocational Training Center",
      "latitude": 20.9042,
      "longitude": 77.7523,
      "status": "Pending",
      "lastUpdated": "2024-01-22T09:50:00Z",
      "description": "Skills development in Amravati East",
      "budget": 6800000,
      "category": "Community"
    },
    {
      "id": 56,
      "projectName": "Concentrated Solar Power",
      "latitude": 19.8501,
      "longitude": 75.8780,
      "status": "Active",
      "lastUpdated": "2024-02-01T13:15:00Z",
      "description": "Thermal energy in Jalgaon",
      "budget": 34500000,
      "category": "Energy"
    },
    {
      "id": 57,
      "projectName": "Monorail Extension",
      "latitude": 18.9975,
      "longitude": 72.8257,
      "status": "In Progress",
      "lastUpdated": "2024-01-27T10:40:00Z",
      "description": "Transit expansion in Wadala",
      "budget": 27300000,
      "category": "Infrastructure"
    },
    {
      "id": 58,
      "projectName": "Butterfly Garden",
      "latitude": 18.5362,
      "longitude": 73.8958,
      "status": "Completed",
      "lastUpdated": "2023-12-05T14:20:00Z",
      "description": "Biodiversity park in Koregaon Park",
      "budget": 1900000,
      "category": "Environment"
    },
    {
      "id": 59,
      "projectName": "Cybersecurity Center",
      "latitude": 19.0760,
      "longitude": 72.8777,
      "status": "Active",
      "lastUpdated": "2024-01-25T16:50:00Z",
      "description": "Digital defense in Fort",
      "budget": 16400000,
      "category": "Technology"
    },
    {
      "id": 60,
      "projectName": "Crisis Response Hub",
      "latitude": 19.2183,
      "longitude": 73.0966,
      "status": "In Progress",
      "lastUpdated": "2024-02-03T09:30:00Z",
      "description": "Emergency services in Dombivli",
      "budget": 8200000,
      "category": "Community"
    },
    {
      "id": 61,
      "projectName": "Hydrogen Fuel Station",
      "latitude": 18.4518,
      "longitude": 73.8572,
      "status": "Active",
      "lastUpdated": "2024-01-28T12:05:00Z",
      "description": "Green transport in Swargate",
      "budget": 18700000,
      "category": "Energy"
    },
    {
      "id": 62,
      "projectName": "Coastal Road Phase 2",
      "latitude": 18.9067,
      "longitude": 72.8147,
      "status": "In Progress",
      "lastUpdated": "2024-02-02T15:25:00Z",
      "description": "Seafront highway in Colaba",
      "budget": 67000000,
      "category": "Infrastructure"
    },
    {
      "id": 63,
      "projectName": "Seagrass Meadow Project",
      "latitude": 15.5000,
      "longitude": 73.7500,
      "status": "Active",
      "lastUpdated": "2024-01-19T10:45:00Z",
      "description": "Underwater ecosystem in Raigad",
      "budget": 5300000,
      "category": "Environment"
    },
    {
      "id": 64,
      "projectName": "Robotics Manufacturing",
      "latitude": 18.5912,
      "longitude": 73.7389,
      "status": "Completed",
      "lastUpdated": "2023-12-28T11:55:00Z",
      "description": "Automation factory in Chakan",
      "budget": 41000000,
      "category": "Technology"
    },
    {
      "id": 65,
      "projectName": "Women's Skill Academy",
      "latitude": 19.3487,
      "longitude": 72.8516,
      "status": "Active",
      "lastUpdated": "2024-01-21T14:30:00Z",
      "description": "Empowerment program in Virar",
      "budget": 4600000,
      "category": "Community"
    },
    {
      "id": 66,
      "projectName": "Tidal Barrage System",
      "latitude": 18.7137,
      "longitude": 72.8517,
      "status": "In Progress",
      "lastUpdated": "2024-02-04T13:50:00Z",
      "description": "Marine energy in Uran",
      "budget": 52000000,
      "category": "Energy"
    },
    {
      "id": 67,
      "projectName": "Railway Electrification",
      "latitude": 19.0748,
      "longitude": 72.8856,
      "status": "Active",
      "lastUpdated": "2024-01-26T11:15:00Z",
      "description": "Green rail in Chhatrapati Shivaji Terminus",
      "budget": 39400000,
      "category": "Infrastructure"
    },
    {
      "id": 68,
      "projectName": "Eco-Park Development",
      "latitude": 19.2085,
      "longitude": 73.1733,
      "status": "In Progress",
      "lastUpdated": "2024-01-23T09:20:00Z",
      "description": "Nature reserve in Badlapur",
      "budget": 7800000,
      "category": "Environment"
    },
    {
      "id": 69,
      "projectName": "AI Healthcare Platform",
      "latitude": 18.5196,
      "longitude": 73.8553,
      "status": "Active",
      "lastUpdated": "2024-02-01T16:40:00Z",
      "description": "Medical tech in Deccan",
      "budget": 13600000,
      "category": "Technology"
    },
    {
      "id": 70,
      "projectName": "Youth Sports Academy",
      "latitude": 21.1353,
      "longitude": 79.1168,
      "status": "Pending",
      "lastUpdated": "2024-01-20T10:25:00Z",
      "description": "Athletic training in Nagpur South",
      "budget": 9800000,
      "category": "Community"
    },
    {
      "id": 71,
      "projectName": "Microgrid System",
      "latitude": 17.6868,
      "longitude": 75.9115,
      "status": "Active",
      "lastUpdated": "2024-02-03T12:30:00Z",
      "description": "Distributed power in Solapur East",
      "budget": 21500000,
      "category": "Energy"
    },
    {
      "id": 72,
      "projectName": "Sewage Treatment Plant",
      "latitude": 18.5074,
      "longitude": 73.8077,
      "status": "In Progress",
      "lastUpdated": "2024-01-29T14:55:00Z",
      "description": "Water management in Kothrud",
      "budget": 25600000,
      "category": "Infrastructure"
    },
    {
      "id": 73,
      "projectName": "Wildlife Underpass",
      "latitude": 19.5176,
      "longitude": 72.8561,
      "status": "Completed",
      "lastUpdated": "2023-12-20T08:15:00Z",
      "description": "Animal safety in Dahanu",
      "budget": 3800000,
      "category": "Environment"
    },
    {
      "id": 74,
      "projectName": "IoT Sensor Network",
      "latitude": 19.0330,
      "longitude": 73.0297,
      "status": "Active",
      "lastUpdated": "2024-01-24T13:10:00Z",
      "description": "Smart monitoring in New Panvel",
      "budget": 10200000,
      "category": "Technology"
    },
    {
      "id": 75,
      "projectName": "Community Kitchen",
      "latitude": 19.1885,
      "longitude": 72.9717,
      "status": "Active",
      "lastUpdated": "2024-02-02T11:45:00Z",
      "description": "Food security in Bhandup",
      "budget": 2400000,
      "category": "Community"
    },
    {
      "id": 76,
      "projectName": "Offshore Wind Farm",
      "latitude": 18.9894,
      "longitude": 72.8380,
      "status": "In Progress",
      "lastUpdated": "2024-01-25T09:30:00Z",
      "description": "Marine wind energy near Mumbai Coast",
      "budget": 89000000,
      "category": "Energy"
    },
    {
      "id": 77,
      "projectName": "Automated Parking Garage",
      "latitude": 18.5626,
      "longitude": 73.7735,
      "status": "Active",
      "lastUpdated": "2024-01-19T13:05:00Z",
      "description": "Space-efficient parking in Baner",
      "budget": 12100000,
      "category": "Infrastructure"
    },
    {
      "id": 78,
      "projectName": "Fuel Cell Power Plant",
      "latitude": 19.8515,
      "longitude": 75.3479,
      "status": "Pending",
      "lastUpdated": "2024-02-04T15:20:00Z",
      "description": "Clean energy in Aurangabad East",
      "budget": 36000000,
      "category": "Energy"
    },
    {
      "id": 79,
      "projectName": "Holographic Display Network",
      "latitude": 19.1200,
      "longitude": 72.8479,
      "status": "Completed",
      "lastUpdated": "2023-12-08T10:45:00Z",
      "description": "Entertainment tech in Matunga",
      "budget": 8200000,
      "category": "Technology"
    },
    {
      "id": 80,
      "projectName": "Bioswale Drainage System",
      "latitude": 18.4834,
      "longitude": 73.8278,
      "status": "Active",
      "lastUpdated": "2024-01-30T12:55:00Z",
      "description": "Green infrastructure in Warje",
      "budget": 3900000,
      "category": "Environment"
    },
    {
      "id": 81,
      "projectName": "Skyway Connector",
      "latitude": 19.2630,
      "longitude": 72.9694,
      "status": "In Progress",
      "lastUpdated": "2024-01-27T14:15:00Z",
      "description": "Elevated walkway in Vikhroli",
      "budget": 21000000,
      "category": "Infrastructure"
    },
    {
      "id": 82,
      "projectName": "Small Modular Reactor",
      "latitude": 17.3161,
      "longitude": 74.1817,
      "status": "Pending",
      "lastUpdated": "2024-01-22T08:40:00Z",
      "description": "Nuclear energy in Sangli",
      "budget": 125000000,
      "category": "Energy"
    },
    {
      "id": 83,
      "projectName": "Augmented Reality Campus",
      "latitude": 18.5400,
      "longitude": 73.8250,
      "status": "Active",
      "lastUpdated": "2024-02-03T16:05:00Z",
      "description": "Educational tech in Pimpri",
      "budget": 15700000,
      "category": "Technology"
    },
    {
      "id": 84,
      "projectName": "Peatland Conservation",
      "latitude": 19.7515,
      "longitude": 75.7139,
      "status": "Active",
      "lastUpdated": "2024-01-18T11:50:00Z",
      "description": "Carbon sequestration near Jalgaon",
      "budget": 2900000,
      "category": "Environment"
    },
    {
      "id": 85,
      "projectName": "Autonomous Ferry Service",
      "latitude": 18.9289,
      "longitude": 72.8346,
      "status": "In Progress",
      "lastUpdated": "2024-01-29T09:25:00Z",
      "description": "Maritime automation in Gateway of India",
      "budget": 17300000,
      "category": "Infrastructure"
    },
    {
      "id": 86,
      "projectName": "Thermal Energy Network",
      "latitude": 18.4655,
      "longitude": 73.8204,
      "status": "Active",
      "lastUpdated": "2024-02-01T13:35:00Z",
      "description": "District heating in Dhankawadi",
      "budget": 23000000,
      "category": "Energy"
    },
    {
      "id": 87,
      "projectName": "LiDAR Mapping System",
      "latitude": 19.9616,
      "longitude": 73.7549,
      "status": "Completed",
      "lastUpdated": "2023-11-20T15:10:00Z",
      "description": "3D city scanning in Nashik West",
      "budget": 5600000,
      "category": "Technology"
    },
    {
      "id": 88,
      "projectName": "Rainwater Harvesting Network",
      "latitude": 19.0177,
      "longitude": 72.8562,
      "status": "In Progress",
      "lastUpdated": "2024-01-26T10:20:00Z",
      "description": "Water conservation in Churchgate",
      "budget": 6400000,
      "category": "Environment"
    },
    {
      "id": 89,
      "projectName": "Maglev Transit Prototype",
      "latitude": 18.6161,
      "longitude": 73.7286,
      "status": "Pending",
      "lastUpdated": "2024-01-23T14:55:00Z",
      "description": "Next-gen transport in Wakad",
      "budget": 89000000,
      "category": "Infrastructure"
    },
    {
      "id": 90,
      "projectName": "Algae Biofuel Production",
      "latitude": 20.9667,
      "longitude": 77.7500,
      "status": "Active",
      "lastUpdated": "2024-02-04T12:30:00Z",
      "description": "Renewable fuel research in Amravati West",
      "budget": 11400000,
      "category": "Energy"
    },
    {
      "id": 91,
      "projectName": "Neuromorphic Chip Fab",
      "latitude": 18.5793,
      "longitude": 73.7389,
      "status": "In Progress",
      "lastUpdated": "2024-01-20T16:40:00Z",
      "description": "Advanced semiconductors in Talawade",
      "budget": 78000000,
      "category": "Technology"
    },
    {
      "id": 92,
      "projectName": "Kelp Forest Regeneration",
      "latitude": 17.0005,
      "longitude": 73.0169,
      "status": "Active",
      "lastUpdated": "2024-01-31T09:15:00Z",
      "description": "Ocean restoration in Malvan",
      "budget": 4100000,
      "category": "Environment"
    },
    {
      "id": 93,
      "projectName": "Smart Sidewalk Sensors",
      "latitude": 19.0896,
      "longitude": 72.8656,
      "status": "Completed",
      "lastUpdated": "2023-12-12T11:05:00Z",
      "description": "Pedestrian analytics in CST area",
      "budget": 3500000,
      "category": "Infrastructure"
    },
    {
      "id": 94,
      "projectName": "Gravity Energy Storage",
      "latitude": 18.7088,
      "longitude": 73.4178,
      "status": "In Progress",
      "lastUpdated": "2024-02-02T15:25:00Z",
      "description": "Mechanical battery in Khopoli",
      "budget": 26000000,
      "category": "Energy"
    },
    {
      "id": 95,
      "projectName": "Swarm Robotics Lab",
      "latitude": 18.5314,
      "longitude": 73.8447,
      "status": "Pending",
      "lastUpdated": "2024-01-24T13:45:00Z",
      "description": "Automation research in Pune University area",
      "budget": 14900000,
      "category": "Technology"
    },
    {
      "id": 96,
      "projectName": "Grassland Carbon Capture",
      "latitude": 19.5494,
      "longitude": 76.0863,
      "status": "Active",
      "lastUpdated": "2024-01-17T10:30:00Z",
      "description": "Soil sequestration near Beed",
      "budget": 5200000,
      "category": "Environment"
    },
    {
      "id": 97,
      "projectName": "Hyperloop Test Tube",
      "latitude": 18.5229,
      "longitude": 73.8520,
      "status": "In Progress",
      "lastUpdated": "2024-01-28T12:10:00Z",
      "description": "Vacuum transport in Pune Metro region",
      "budget": 95000000,
      "category": "Infrastructure"
    },
    {
      "id": 98,
      "projectName": "Perovskite Solar Panels",
      "latitude": 21.0077,
      "longitude": 75.5626,
      "status": "Active",
      "lastUpdated": "2024-02-03T14:50:00Z",
      "description": "Next-gen PV in Bhusawal",
      "budget": 18200000,
      "category": "Energy"
    },
    {
      "id": 99,
      "projectName": "Photonic Computing Grid",
      "latitude": 18.5089,
      "longitude": 73.8014,
      "status": "Completed",
      "lastUpdated": "2023-12-30T16:20:00Z",
      "description": "Light-based processing in Kothrud West",
      "budget": 44000000,
      "category": "Technology"
    },
    {
      "id": 100,
      "projectName": "Mycelium Building Materials",
      "latitude": 19.3726,
      "longitude": 72.8510,
      "status": "Active",
      "lastUpdated": "2024-01-16T08:55:00Z",
      "description": "Sustainable construction in Nalasopara",
      "budget": 7600000,
      "category": "Environment"
    }
  ],
  "meta": {
    "totalCount": 100,
    "page": 1,
    "pageSize": 100,
    "totalPages": 1
  }
}